{
  "type": "FeatureCollection",
  "name": "Noise_2024",
  "crs": {
    "type": "name",
    "properties": { "name": "urn:ogc:def:crs:OGC:1.3:CRS84" }
  },
  "features": [
    {
      "type": "Feature",
      "properties": {
        "Обект": "N1",
        "Y": 42.681047,
        "X": 23.321773,
        "Най-близък административен адрес": "ул. „Бисер“ 15-7",
        "Височина на монтаж": "3/3.5m",
        "Serial Number": "B8A1A5",
        "Microcontroller Number": "AT206C388B4232",
        "Статус инсталация": "Инсталирана"
      },
      "geometry": { "type": "Point", "coordinates": [23.321773, 42.681047] }
    },
    {
      "type": "Feature",
      "properties": {
        "Обект": "N2",
        "Y": 42.683356,
        "X": 23.327407,
        "Най-близък административен адрес": "ул. ,,Милин камък\" 15",
        "Височина на монтаж": "3/3.5m",
        "Serial Number": "B8A1C0",
        "Microcontroller Number": "AT206A38974232",
        "Статус инсталация": "Инсталирана"
      },
      "geometry": { "type": "Point", "coordinates": [23.327407, 42.683356] }
    },
    {
      "type": "Feature",
      "properties": {
        "Обект": "N3",
        "Y": 42.685926,
        "X": 23.331282,
        "Най-близък административен адрес": "бул. ,,Евлоги и Христо Георгиеви\" 34",
        "Височина на монтаж": "3/3.5m",
        "Serial Number": "B8A1D8",
        "Microcontroller Number": "AT206C387A4232",
        "Статус инсталация": "Инсталирана"
      },
      "geometry": { "type": "Point", "coordinates": [23.331282, 42.685926] }
    },
    {
      "type": "Feature",
      "properties": {
        "Обект": "N4",
        "Y": 42.6843386,
        "X": 23.3308639,
        "Най-близък административен адрес": "бул. „Христо Смирненски“ 1",
        "Височина на монтаж": "3/3.5m",
        "Serial Number": "B8A1CB",
        "Microcontroller Number": "AT204F38684232",
        "Статус инсталация": "Инсталирана"
      },
      "geometry": { "type": "Point", "coordinates": [23.3308639, 42.6843386] }
    },
    {
      "type": "Feature",
      "properties": {
        "Обект": "N5",
        "Y": 42.68201,
        "X": 23.335614,
        "Най-близък административен адрес": "ул. „Митрополит Кирил Видински“ 2",
        "Височина на монтаж": "3/3.5m",
        "Serial Number": "B8A1A0",
        "Microcontroller Number": "AT206C38704232",
        "Статус инсталация": "Инсталирана"
      },
      "geometry": { "type": "Point", "coordinates": [23.335614, 42.68201] }
    },
    {
      "type": "Feature",
      "properties": {
        "Обект": "N6",
        "Y": 42.68131,
        "X": 23.332216,
        "Най-близък административен адрес": "ул. „арх. Йордан Миланов“ 1-Б, пл.\"Журналист\"",
        "Височина на монтаж": "3/3.5m",
        "Serial Number": "B8A1BE",
        "Microcontroller Number": "AT205338774232",
        "Статус инсталация": "Инсталирана"
      },
      "geometry": { "type": "Point", "coordinates": [23.332216, 42.68131] }
    },
    {
      "type": "Feature",
      "properties": {
        "Обект": "N7",
        "Y": 42.67983,
        "X": 23.328929,
        "Най-близък административен адрес": "ул. „Миджур“ 16",
        "Височина на монтаж": "3/3.5m",
        "Serial Number": "B8A1C6",
        "Microcontroller Number": "AT206B388D4232",
        "Статус инсталация": "Инсталирана"
      },
      "geometry": { "type": "Point", "coordinates": [23.328929, 42.67983] }
    },
    {
      "type": "Feature",
      "properties": {
        "Обект": "N8",
        "Y": 42.678157,
        "X": 23.325296,
        "Най-близък административен адрес": "бул. „Свети Наум“ 20-22",
        "Височина на монтаж": "3/3.5m",
        "Serial Number": "B8A1D7",
        "Microcontroller Number": "AT206B38934232",
        "Статус инсталация": "Инсталирана"
      },
      "geometry": { "type": "Point", "coordinates": [23.325296, 42.678157] }
    },
    {
      "type": "Feature",
      "properties": {
        "Обект": "N9",
        "Y": 42.681066,
        "X": 23.324549,
        "Най-близък административен адрес": "ул. „Розова долина“ 13",
        "Височина на монтаж": "3/3.5m",
        "Serial Number": "B8A1B2",
        "Microcontroller Number": "AT206A38984232",
        "Статус инсталация": "Инсталирана"
      },
      "geometry": { "type": "Point", "coordinates": [23.324549, 42.681066] }
    },
    {
      "type": "Feature",
      "properties": {
        "Обект": "N10",
        "Y": 42.677615,
        "X": 23.330503,
        "Най-близък административен адрес": "бул. „Свети Наум“ 58",
        "Височина на монтаж": "3/3.5m",
        "Serial Number": "B8A1C3",
        "Microcontroller Number": "AT206C387B4232",
        "Статус инсталация": "Инсталирана"
      },
      "geometry": { "type": "Point", "coordinates": [23.330503, 42.677615] }
    },
    {
      "type": "Feature",
      "properties": {
        "Обект": "N11",
        "Y": 42.676347,
        "X": 23.333498,
        "Най-близък административен адрес": "бул. „Христо Смирненски“/бул. „Джеймс Баучер“(кръстовище)",
        "Височина на монтаж": "3/3.5m",
        "Serial Number": "B8A1BD",
        "Microcontroller Number": "AT205C38934232",
        "Статус инсталация": "Инсталирана"
      },
      "geometry": { "type": "Point", "coordinates": [23.333498, 42.676347] }
    },
    {
      "type": "Feature",
      "properties": {
        "Обект": "N12",
        "Y": 42.6726165,
        "X": 23.3358028,
        "Най-близък административен адрес": "ул. „Стоян Михайловски“ 34",
        "Височина на монтаж": "3/3.5m",
        "Serial Number": "B8A1D4",
        "Microcontroller Number": "AT205338754232",
        "Статус инсталация": "Инсталирана"
      },
      "geometry": { "type": "Point", "coordinates": [23.3358028, 42.6726165] }
    },
    {
      "type": "Feature",
      "properties": {
        "Обект": "N13",
        "Y": 42.677698,
        "X": 23.341361,
        "Най-близък административен адрес": "бул. „Драган Цанков“, (кръговото на кулата)",
        "Височина на монтаж": "3/3.5m",
        "Serial Number": "B8A1B4",
        "Microcontroller Number": "AT2053386F4232",
        "Статус инсталация": "Инсталирана"
      },
      "geometry": { "type": "Point", "coordinates": [23.341361, 42.677698] }
    },
    {
      "type": "Feature",
      "properties": {
        "Обект": "N14",
        "Y": 42.674284,
        "X": 23.327838,
        "Най-близък административен адрес": "бул. „Джеймс Баучер“ 25-17",
        "Височина на монтаж": "3/3.5m",
        "Serial Number": "B8A1CE",
        "Microcontroller Number": "AT206B38984232",
        "Статус инсталация": "Инсталирана"
      },
      "geometry": { "type": "Point", "coordinates": [23.327838, 42.674284] }
    },
    {
      "type": "Feature",
      "properties": {
        "Обект": "N15",
        "Y": 42.672713,
        "X": 23.32595,
        "Най-близък административен адрес": "ул. „св. Теодосий Търновски“",
        "Височина на монтаж": "3/3.5m",
        "Serial Number": "B8A1D9",
        "Microcontroller Number": "AT205D38814232",
        "Статус инсталация": "Инсталирана"
      },
      "geometry": { "type": "Point", "coordinates": [23.32595, 42.672713] }
    },
    {
      "type": "Feature",
      "properties": {
        "Обект": "N16",
        "Y": 42.675278,
        "X": 23.32373,
        "Най-близък административен адрес": "ул. „Презвитер Козма“ 9",
        "Височина на монтаж": "3/3.5m",
        "Serial Number": "B8A1B8",
        "Microcontroller Number": "AT206B38844232",
        "Статус инсталация": "Инсталирана"
      },
      "geometry": { "type": "Point", "coordinates": [23.32373, 42.675278] }
    },
    {
      "type": "Feature",
      "properties": {
        "Обект": "N17",
        "Y": 42.67188,
        "X": 23.320095,
        "Най-близък административен адрес": "бул. „Джеймс Баучер“ 78-82( с/у HILL TOWER)",
        "Височина на монтаж": "3/3.5m",
        "Serial Number": "B8A1A9",
        "Microcontroller Number": "AT206B388E4232",
        "Статус инсталация": "Инсталирана"
      },
      "geometry": { "type": "Point", "coordinates": [23.320095, 42.67188] }
    },
    {
      "type": "Feature",
      "properties": {
        "Обект": "N18",
        "Y": 42.672716,
        "X": 23.314471,
        "Най-близък административен адрес": "ул. „Цветна градина“ 69",
        "Височина на монтаж": "3/3.5m",
        "Serial Number": "B8A1C7",
        "Microcontroller Number": "AT206B388F4232",
        "Статус инсталация": "Инсталирана"
      },
      "geometry": { "type": "Point", "coordinates": [23.314471, 42.672716] }
    },
    {
      "type": "Feature",
      "properties": {
        "Обект": "N19",
        "Y": 42.676744,
        "X": 23.319244,
        "Най-близък административен адрес": "ул. „Димитър Хаджикоцев“(пред поликлиника 13)",
        "Височина на монтаж": "3/3.5m",
        "Serial Number": "B8A1C5",
        "Microcontroller Number": "AT206C38774232",
        "Статус инсталация": "Инсталирана"
      },
      "geometry": { "type": "Point", "coordinates": [23.319244, 42.676744] }
    },
    {
      "type": "Feature",
      "properties": {
        "Обект": "N20",
        "Y": 42.67836,
        "X": 23.321379,
        "Най-близък административен адрес": "бул. „Арсеналски“/бул. „Черни връх“(кръстовище)",
        "Височина на монтаж": "3/3.5m",
        "Serial Number": "B8A1D2",
        "Microcontroller Number": "AT205D38844232",
        "Статус инсталация": "Инсталирана"
      },
      "geometry": { "type": "Point", "coordinates": [23.321379, 42.67836] }
    },
    {
      "type": "Feature",
      "properties": {
        "Обект": "N21",
        "Y": 42.672286,
        "X": 23.309519,
        "Най-близък административен адрес": "ул. „Славище“ 5-1",
        "Височина на монтаж": "3/3.5m",
        "Serial Number": "B8A1C1",
        "Microcontroller Number": "AT206B38904232",
        "Статус инсталация": "Инсталирана"
      },
      "geometry": { "type": "Point", "coordinates": [23.309519, 42.672286] }
    },
    {
      "type": "Feature",
      "properties": {
        "Обект": "N22",
        "Y": 42.674529,
        "X": 23.31934,
        "Най-близък административен адрес": "ул. „Бунтовник“ 17-13",
        "Височина на монтаж": "3/3.5m",
        "Serial Number": "B8A1CC",
        "Microcontroller Number": "AT206C38764232",
        "Статус инсталация": "Инсталирана"
      },
      "geometry": { "type": "Point", "coordinates": [23.31934, 42.674529] }
    },
    {
      "type": "Feature",
      "properties": {
        "Обект": "N23",
        "Y": 42.644977,
        "X": 23.31413,
        "Най-близък административен адрес": "бул. \"Черни връх\" 117",
        "Височина на монтаж": "3/3.5m",
        "Serial Number": "B8A1A1",
        "Microcontroller Number": "AT205338764232",
        "Статус инсталация": "Инсталирана"
      },
      "geometry": { "type": "Point", "coordinates": [23.31413, 42.644977] }
    },
    {
      "type": "Feature",
      "properties": {
        "Обект": "N24",
        "Y": 42.647659,
        "X": 23.319512,
        "Най-близък административен адрес": "ул. ,,проф. Георги Йолов\" 69Б",
        "Височина на монтаж": "3/3.5m",
        "Serial Number": "B8A1A7",
        "Microcontroller Number": "AT204F38764232",
        "Статус инсталация": "Инсталирана"
      },
      "geometry": { "type": "Point", "coordinates": [23.319512, 42.647659] }
    },
    {
      "type": "Feature",
      "properties": {
        "Обект": "N25",
        "Y": 42.647372,
        "X": 23.31494,
        "Най-близък административен адрес": "бул. „Черни връх“, 89",
        "Височина на монтаж": "3/3.5m",
        "Serial Number": "B8A1AD",
        "Microcontroller Number": "AT206B38884232",
        "Статус инсталация": "Инсталирана"
      },
      "geometry": { "type": "Point", "coordinates": [23.31494, 42.647372] }
    },
    {
      "type": "Feature",
      "properties": {
        "Обект": "N26",
        "Y": 42.682644,
        "X": 23.335632,
        "Най-близък административен адрес": "бул. „Драган Цанков“/Борисова градина",
        "Височина на монтаж": "3/3.5m",
        "Serial Number": "B8A1B9",
        "Microcontroller Number": "AT205D38924232",
        "Статус инсталация": "Инсталирана"
      },
      "geometry": { "type": "Point", "coordinates": [23.335632, 42.682644] }
    },
    {
      "type": "Feature",
      "properties": {
        "Обект": "N27",
        "Y": 42.651972,
        "X": 23.316198,
        "Най-близък административен адрес": "бул. „Черни връх“ 116",
        "Височина на монтаж": "3/3.5m",
        "Serial Number": "B8A1AA",
        "Microcontroller Number": "AT206B38964232",
        "Статус инсталация": "Инсталирана"
      },
      "geometry": { "type": "Point", "coordinates": [23.316198, 42.651972] }
    },
    {
      "type": "Feature",
      "properties": {
        "Обект": "N28",
        "Y": 42.652066,
        "X": 23.324105,
        "Най-близък административен адрес": "ул. „Борис Руменов“27",
        "Височина на монтаж": "3/3.5m",
        "Serial Number": "B8A1AB",
        "Microcontroller Number": "AT206C386C4232",
        "Статус инсталация": "Инсталирана"
      },
      "geometry": { "type": "Point", "coordinates": [23.324105, 42.652066] }
    },
    {
      "type": "Feature",
      "properties": {
        "Обект": "N29",
        "Y": 42.656854,
        "X": 23.320232,
        "Най-близък административен адрес": "ул. „Филип Кутев“ 7-5",
        "Височина на монтаж": "3/3.5m",
        "Serial Number": "B8A1AC",
        "Microcontroller Number": "AT206C38794232",
        "Статус инсталация": "Инсталирана"
      },
      "geometry": { "type": "Point", "coordinates": [23.320232, 42.656854] }
    },
    {
      "type": "Feature",
      "properties": {
        "Обект": "N30",
        "Y": 42.654821,
        "X": 23.315873,
        "Най-близък административен адрес": "бул. „Черни връх“ 59А",
        "Височина на монтаж": "3/3.5m",
        "Serial Number": "B8A1AE",
        "Microcontroller Number": "AT206C387D4232",
        "Статус инсталация": "Инсталирана"
      },
      "geometry": { "type": "Point", "coordinates": [23.315873, 42.654821] }
    },
    {
      "type": "Feature",
      "properties": {
        "Обект": "N31",
        "Y": 42.65737,
        "X": 23.328111,
        "Най-близък административен адрес": "ул. „Сребърна“ 33-35",
        "Височина на монтаж": "3/3.5m",
        "Serial Number": "B8A1B7",
        "Microcontroller Number": "AT2064388C4232",
        "Статус инсталация": "Инсталирана"
      },
      "geometry": { "type": "Point", "coordinates": [23.328111, 42.65737] }
    },
    {
      "type": "Feature",
      "properties": {
        "Обект": "N32",
        "Y": 42.670888,
        "X": 23.330643,
        "Най-близък административен адрес": "ул. „Бабуна планина“/ул. „Бигла“",
        "Височина на монтаж": "3/3.5m",
        "Serial Number": "B8A1A8",
        "Microcontroller Number": "AT205D38824232",
        "Статус инсталация": "Инсталирана"
      },
      "geometry": { "type": "Point", "coordinates": [23.330643, 42.670888] }
    },
    {
      "type": "Feature",
      "properties": {
        "Обект": "N33",
        "Y": 42.667478,
        "X": 23.326765,
        "Най-близък административен адрес": "бул.\"Никола Вапцаров\"/ул.\"Атанас Дуков\"",
        "Височина на монтаж": "3/3.5m",
        "Serial Number": "B8A1DB",
        "Microcontroller Number": "AT206C387C4232",
        "Статус инсталация": "Инсталирана"
      },
      "geometry": { "type": "Point", "coordinates": [23.326765, 42.667478] }
    },
    {
      "type": "Feature",
      "properties": {
        "Обект": "N34",
        "Y": 42.669474,
        "X": 23.326243,
        "Най-близък административен адрес": "ул. „Плачковица“/ул.„Персенк“",
        "Височина на монтаж": "3/3.5m",
        "Serial Number": "B8A1C2",
        "Microcontroller Number": "AT206B388A4232",
        "Статус инсталация": "Инсталирана"
      },
      "geometry": { "type": "Point", "coordinates": [23.326243, 42.669474] }
    },
    {
      "type": "Feature",
      "properties": {
        "Обект": "N35",
        "Y": 42.670541,
        "X": 23.323444,
        "Най-близък административен адрес": "ул. „Кричим“ 15-13",
        "Височина на монтаж": "3/3.5m",
        "Serial Number": "B8A1CD",
        "Microcontroller Number": "AT205D38874232",
        "Статус инсталация": "Инсталирана"
      },
      "geometry": { "type": "Point", "coordinates": [23.323444, 42.670541] }
    },
    {
      "type": "Feature",
      "properties": {
        "Обект": "N36",
        "Y": 42.6693865,
        "X": 23.321161,
        "Най-близък административен адрес": "ул. „Драгалевска“ 17Б",
        "Височина на монтаж": "3/3.5m",
        "Serial Number": "B8A1A2",
        "Microcontroller Number": "AT206C38784232",
        "Статус инсталация": "Инсталирана"
      },
      "geometry": { "type": "Point", "coordinates": [23.321161, 42.6693865] }
    },
    {
      "type": "Feature",
      "properties": {
        "Обект": "N37",
        "Y": 42.669719,
        "X": 23.317226,
        "Най-близък административен адрес": "ул. „Голо Бърдо“ 17",
        "Височина на монтаж": "3/3.5m",
        "Serial Number": "B8A1A4",
        "Microcontroller Number": "AT206C38844232",
        "Статус инсталация": "Инсталирана"
      },
      "geometry": { "type": "Point", "coordinates": [23.317226, 42.669719] }
    },
    {
      "type": "Feature",
      "properties": {
        "Обект": "N38",
        "Y": 42.6680528,
        "X": 23.315696,
        "Най-близък административен адрес": "ул. \"Елин Връх\" 12",
        "Височина на монтаж": "3/3.5m",
        "Serial Number": "B8A1AF",
        "Microcontroller Number": "AT206B38944232",
        "Статус инсталация": "Инсталирана"
      },
      "geometry": { "type": "Point", "coordinates": [23.315696, 42.6680528] }
    },
    {
      "type": "Feature",
      "properties": {
        "Обект": "N39",
        "Y": 42.66334,
        "X": 23.315502,
        "Най-близък административен адрес": "ул. „Банат“ 10",
        "Височина на монтаж": "3/3.5m",
        "Serial Number": "B8A1A3",
        "Microcontroller Number": "AT206C38754232",
        "Статус инсталация": "Инсталирана"
      },
      "geometry": { "type": "Point", "coordinates": [23.315502, 42.66334] }
    },
    {
      "type": "Feature",
      "properties": {
        "Обект": "N40",
        "Y": 42.6335068,
        "X": 23.3336212,
        "Най-близък административен адрес": "бул. \"Симеоновско шосе\" 138 (предишната локация е в границите на частен имот)",
        "Височина на монтаж": "3/3.5m",
        "Serial Number": "B8A1DA",
        "Microcontroller Number": "AT205338734232",
        "Статус инсталация": "Инсталирана"
      },
      "geometry": { "type": "Point", "coordinates": [23.3336212, 42.6335068] }
    },
    {
      "type": "Feature",
      "properties": {
        "Обект": "N41",
        "Y": 42.646385,
        "X": 23.329149,
        "Най-близък административен адрес": "ул. ,,Георги Райчев\" 19",
        "Височина на монтаж": "3/3.5m",
        "Serial Number": "B8A1D1",
        "Microcontroller Number": "AT206A38954232",
        "Статус инсталация": "Инсталирана"
      },
      "geometry": { "type": "Point", "coordinates": [23.329149, 42.646385] }
    },
    {
      "type": "Feature",
      "properties": {
        "Обект": "N42",
        "Y": 42.647231,
        "X": 23.330809,
        "Най-близък административен адрес": "ул. „проф. Жечо Атанасов“/ул. „Иван Радоев“",
        "Височина на монтаж": "3/3.5m",
        "Serial Number": "B8A1D5",
        "Microcontroller Number": "AT206B388C4232",
        "Статус инсталация": "Инсталирана"
      },
      "geometry": { "type": "Point", "coordinates": [23.330809, 42.647231] }
    },
    {
      "type": "Feature",
      "properties": {
        "Обект": "N43",
        "Y": 42.648627,
        "X": 23.327635,
        "Най-близък административен адрес": "ул. „Иван Радоев“ 30",
        "Височина на монтаж": "3/3.5m",
        "Serial Number": "B8A1CF",
        "Microcontroller Number": "AT204F38654232",
        "Статус инсталация": "Инсталирана"
      },
      "geometry": { "type": "Point", "coordinates": [23.327635, 42.648627] }
    },
    {
      "type": "Feature",
      "properties": {
        "Обект": "N44",
        "Y": 42.651777,
        "X": 23.329498,
        "Най-близък административен адрес": "ул. „Йордан Стубел“ 25, 1700 кв. Витоша, София",
        "Височина на монтаж": "3/3.5m",
        "Serial Number": "B8A1A6",
        "Microcontroller Number": "AT206A38934232",
        "Статус инсталация": "Инсталирана"
      },
      "geometry": { "type": "Point", "coordinates": [23.329498, 42.651777] }
    },
    {
      "type": "Feature",
      "properties": {
        "Обект": "N45",
        "Y": 42.652362,
        "X": 23.333155,
        "Най-близък административен адрес": "ул. „Данаил Крапчев“ 66",
        "Височина на монтаж": "3/3.5m",
        "Serial Number": "B8A1C8",
        "Microcontroller Number": "AT206C38814232",
        "Статус инсталация": "Инсталирана"
      },
      "geometry": { "type": "Point", "coordinates": [23.333155, 42.652362] }
    },
    {
      "type": "Feature",
      "properties": {
        "Обект": "N46",
        "Y": 42.654128,
        "X": 23.328975,
        "Най-близък административен адрес": "ул. ,,Димитър Яблански\" 15",
        "Височина на монтаж": "3/3.5m",
        "Serial Number": "B8A1BC",
        "Microcontroller Number": "AT206C387E4232",
        "Статус инсталация": "Инсталирана"
      },
      "geometry": { "type": "Point", "coordinates": [23.328975, 42.654128] }
    },
    {
      "type": "Feature",
      "properties": {
        "Обект": "N47",
        "Y": 42.659255,
        "X": 23.326611,
        "Най-близък административен адрес": "ул. „Сребърна“/ул. „Шаварски път“",
        "Височина на монтаж": "3/3.5m",
        "Serial Number": "B8A1B5",
        "Microcontroller Number": "AT206A38964232",
        "Статус инсталация": "Инсталирана"
      },
      "geometry": { "type": "Point", "coordinates": [23.326611, 42.659255] }
    },
    {
      "type": "Feature",
      "properties": {
        "Обект": "N48",
        "Y": 42.659895,
        "X": 23.322186,
        "Най-близък административен адрес": "ул. „Сребърна“ 21",
        "Височина на монтаж": "3/3.5m",
        "Serial Number": "B8A1B0",
        "Microcontroller Number": "AT206C38744232",
        "Статус инсталация": "Инсталирана"
      },
      "geometry": { "type": "Point", "coordinates": [23.322186, 42.659895] }
    },
    {
      "type": "Feature",
      "properties": {
        "Обект": "N49",
        "Y": 42.654572,
        "X": 23.332316,
        "Най-близък административен адрес": "ул. „Тодор Ф. Чипев“8-10",
        "Височина на монтаж": "3/3.5m",
        "Serial Number": "B8A1B1",
        "Microcontroller Number": "AT206C38854232",
        "Статус инсталация": "Инсталирана"
      },
      "geometry": { "type": "Point", "coordinates": [23.332316, 42.654572] }
    },
    {
      "type": "Feature",
      "properties": {
        "Обект": "N50",
        "Y": 42.655984,
        "X": 23.334968,
        "Най-близък административен адрес": "ул. „Тодор Кожухаров“ 18-22",
        "Височина на монтаж": "3/3.5m",
        "Serial Number": "B8A1BB",
        "Microcontroller Number": "AT204B387B4232",
        "Статус инсталация": "Инсталирана"
      },
      "geometry": { "type": "Point", "coordinates": [23.334968, 42.655984] }
    },
    {
      "type": "Feature",
      "properties": {
        "Обект": "N51",
        "Y": 42.653264,
        "X": 23.335864,
        "Най-близък административен адрес": "ул. ,, 455-та\"/бул. „Симеоновско шосе“",
        "Височина на монтаж": "3/3.5m",
        "Serial Number": "B8A1D3",
        "Microcontroller Number": "AT205038714232",
        "Статус инсталация": "Инсталирана"
      },
      "geometry": { "type": "Point", "coordinates": [23.335864, 42.653264] }
    },
    {
      "type": "Feature",
      "properties": {
        "Обект": "N52",
        "Y": 42.648533,
        "X": 23.334971,
        "Най-близък административен адрес": "ул. „проф. Васил Стоин“ 7-1",
        "Височина на монтаж": "3/3.5m",
        "Serial Number": "B8A1CA",
        "Microcontroller Number": "AT206C38824232",
        "Статус инсталация": "Инсталирана"
      },
      "geometry": { "type": "Point", "coordinates": [23.334971, 42.648533] }
    },
    {
      "type": "Feature",
      "properties": {
        "Обект": "N53",
        "Y": 42.6440767,
        "X": 23.3337187,
        "Най-близък административен адрес": "бул. „Симеоновско шосе“ 102",
        "Височина на монтаж": "3/3.5m",
        "Serial Number": "B8A1BA",
        "Microcontroller Number": "AT206B38914232",
        "Статус инсталация": "Инсталирана"
      },
      "geometry": { "type": "Point", "coordinates": [23.3337187, 42.6440767] }
    },
    {
      "type": "Feature",
      "properties": {
        "Обект": "N54",
        "Y": 42.641983,
        "X": 23.330992,
        "Най-близък административен адрес": "ул. „Константин Петканов“ 26-32",
        "Височина на монтаж": "3/3.5m",
        "Serial Number": "B8A1D0",
        "Microcontroller Number": "AT205D38834232",
        "Статус инсталация": "Инсталирана"
      },
      "geometry": { "type": "Point", "coordinates": [23.330992, 42.641983] }
    },
    {
      "type": "Feature",
      "properties": {
        "Обект": "N55",
        "Y": 42.636308,
        "X": 23.332132,
        "Най-близък административен адрес": "ул. „Борис Арсов“ 12",
        "Височина на монтаж": "3/3.5m",
        "Serial Number": "B8A1D6",
        "Microcontroller Number": "AT206B38864232",
        "Статус инсталация": "Инсталирана"
      },
      "geometry": { "type": "Point", "coordinates": [23.332132, 42.636308] }
    },
    {
      "type": "Feature",
      "properties": {
        "Обект": "N56",
        "Y": 42.660423,
        "X": 23.315772,
        "Най-близък административен адрес": "ул. „Кишинев“ 4",
        "Височина на монтаж": "3/3.5m",
        "Serial Number": "B8A1B6",
        "Microcontroller Number": "AT204F38714232",
        "Статус инсталация": "Инсталирана"
      },
      "geometry": { "type": "Point", "coordinates": [23.315772, 42.660423] }
    },
    {
      "type": "Feature",
      "properties": {
        "Обект": "N57",
        "Y": 42.663707,
        "X": 23.325332,
        "Най-близък административен адрес": "ул. Атанас Дуков,( с/у МБАЛ Токода)",
        "Височина на монтаж": "3/3.5m",
        "Serial Number": "B8A1C4",
        "Microcontroller Number": "AT206B38954232",
        "Статус инсталация": "Инсталирана"
      },
      "geometry": { "type": "Point", "coordinates": [23.325332, 42.663707] }
    },
    {
      "type": "Feature",
      "properties": {
        "Обект": "N58",
        "Y": 42.658178,
        "X": 23.313128,
        "Най-близък административен адрес": "ул. „Козяк“ 47-45",
        "Височина на монтаж": "3/3.5m",
        "Serial Number": "B8A1BF",
        "Microcontroller Number": "AT206A38944232",
        "Статус инсталация": "Инсталирана"
      },
      "geometry": { "type": "Point", "coordinates": [23.313128, 42.658178] }
    },
    {
      "type": "Feature",
      "properties": {
        "Обект": "N59",
        "Y": 42.668832,
        "X": 23.330668,
        "Най-близък административен адрес": "бул. „Никола Й. Вапцаров“ 61",
        "Височина на монтаж": "3/3.5m",
        "Serial Number": "B8A1B3",
        "Microcontroller Number": "AT204D386E4232",
        "Статус инсталация": "Инсталирана"
      },
      "geometry": { "type": "Point", "coordinates": [23.330668, 42.668832] }
    },
    {
      "type": "Feature",
      "properties": {
        "Обект": "N60",
        "Y": 42.664483,
        "X": 23.337159,
        "Най-близък административен адрес": "бул. „Симеоновско шосе“/парк ,,Ловен\"",
        "Височина на монтаж": "3/3.5m",
        "Serial Number": "B8A1C9",
        "Microcontroller Number": "AT205038724232",
        "Статус инсталация": "Инсталирана"
      },
      "geometry": { "type": "Point", "coordinates": [23.337159, 42.664483] }
    }
  ]
}
